{
    "type": "FeatureCollection",
    "features": [
        {
            "type": "Feature",
            "geometry": {
                "type": "Point",
                "coordinates": [
                    -118.2631298,
                    34.0425123
                ]
            },
            "properties": {
                "nome": "Calvary Temple Evangelical Center",
                "tipo": "place_of_worship"
            }
        },
        {
            "type": "Feature",
            "geometry": {
                "type": "Point",
                "coordinates": [
                    -118.2599289,
                    34.04422
                ]
            },
            "properties": {
                "nome": "Fashion Institute of Design and Marketing",
                "tipo": "college"
            }
        },
        {
            "type": "Feature",
            "geometry": {
                "type": "Point",
                "coordinates": [
                    -118.256567,
                    34.047039
                ]
            },
            "properties": {
                "nome": "Bottega Louie",
                "tipo": "restaurant"
            }
        },
        {
            "type": "Feature",
            "geometry": {
                "type": "Point",
                "coordinates": [
                    -118.266046,
                    34.044918
                ]
            },
            "properties": {
                "nome": "East Garage",
                "tipo": "parking"
            }
        },
        {
            "type": "Feature",
            "geometry": {
                "type": "Point",
                "coordinates": [
                    -118.2654725,
                    34.0445489
                ]
            },
            "properties": {
                "nome": "The Novo",
                "tipo": "theatre"
            }
        },
        {
            "type": "Feature",
            "geometry": {
                "type": "Point",
                "coordinates": [
                    -118.265798,
                    34.0449843
                ]
            },
            "properties": {
                "nome": "Yard House",
                "tipo": "restaurant"
            }
        },
        {
            "type": "Feature",
            "geometry": {
                "type": "Point",
                "coordinates": [
                    -118.261042,
                    34.0430344
                ]
            },
            "properties": {
                "nome": "Shell",
                "tipo": "fuel"
            }
        },
        {
            "type": "Feature",
            "geometry": {
                "type": "Point",
                "coordinates": [
                    -118.258819,
                    34.0477282
                ]
            },
            "properties": {
                "nome": "The Bloc Food Court",
                "tipo": "food_court"
            }
        },
        {
            "type": "Feature",
            "geometry": {
                "type": "Point",
                "coordinates": [
                    -118.2617582,
                    34.0480163
                ]
            },
            "properties": {
                "nome": "Corner Bakery",
                "tipo": "cafe"
            }
        },
        {
            "type": "Feature",
            "geometry": {
                "type": "Point",
                "coordinates": [
                    -118.2628977,
                    34.0463719
                ]
            },
            "properties": {
                "nome": "Original Pantry Cafe",
                "tipo": "restaurant"
            }
        },
        {
            "type": "Feature",
            "geometry": {
                "type": "Point",
                "coordinates": [
                    -118.258201,
                    34.0434571
                ]
            },
            "properties": {
                "nome": "Club Galaxy",
                "tipo": "nightclub"
            }
        },
        {
            "type": "Feature",
            "geometry": {
                "type": "Point",
                "coordinates": [
                    -118.26485,
                    34.0453878
                ]
            },
            "properties": {
                "nome": "Downtown Carwash",
                "tipo": "car_wash"
            }
        },
        {
            "type": "Feature",
            "geometry": {
                "type": "Point",
                "coordinates": [
                    -118.2636174,
                    34.0450765
                ]
            },
            "properties": {
                "nome": "Wells Fargo",
                "tipo": "bank"
            }
        },
        {
            "type": "Feature",
            "geometry": {
                "type": "Point",
                "coordinates": [
                    -118.2573199,
                    34.0479509
                ]
            },
            "properties": {
                "nome": "Walgreens",
                "tipo": "pharmacy"
            }
        },
        {
            "type": "Feature",
            "geometry": {
                "type": "Point",
                "coordinates": [
                    -118.2566694,
                    34.0475188
                ]
            },
            "properties": {
                "nome": "Chipotle",
                "tipo": "fast_food"
            }
        },
        {
            "type": "Feature",
            "geometry": {
                "type": "Point",
                "coordinates": [
                    -118.256999,
                    34.0473499
                ]
            },
            "properties": {
                "nome": "Sugarfish",
                "tipo": "restaurant"
            }
        },
        {
            "type": "Feature",
            "geometry": {
                "type": "Point",
                "coordinates": [
                    -118.255926,
                    34.0470366
                ]
            },
            "properties": {
                "nome": "Seven Grand Whiskey Bar",
                "tipo": "bar"
            }
        },
        {
            "type": "Feature",
            "geometry": {
                "type": "Point",
                "coordinates": [
                    -118.260069,
                    34.0470446
                ]
            },
            "properties": {
                "nome": "IHOP",
                "tipo": "restaurant"
            }
        },
        {
            "type": "Feature",
            "geometry": {
                "type": "Point",
                "coordinates": [
                    -118.2604543,
                    34.0473558
                ]
            },
            "properties": {
                "nome": "Pizza Next Door",
                "tipo": "fast_food"
            }
        },
        {
            "type": "Feature",
            "geometry": {
                "type": "Point",
                "coordinates": [
                    -118.2611301,
                    34.0478055
                ]
            },
            "properties": {
                "nome": "Roy's Hawaiian Fusion",
                "tipo": "restaurant"
            }
        },
        {
            "type": "Feature",
            "geometry": {
                "type": "Point",
                "coordinates": [
                    -118.2604059,
                    34.0473255
                ]
            },
            "properties": {
                "nome": "SanSai Japanese Grill",
                "tipo": "fast_food"
            }
        },
        {
            "type": "Feature",
            "geometry": {
                "type": "Point",
                "coordinates": [
                    -118.260413,
                    34.0453231
                ]
            },
            "properties": {
                "nome": "The Coffee Bean & Tea Leaf",
                "tipo": "cafe"
            }
        },
        {
            "type": "Feature",
            "geometry": {
                "type": "Point",
                "coordinates": [
                    -118.260235,
                    34.045512
                ]
            },
            "properties": {
                "nome": "Simply Salad",
                "tipo": "fast_food"
            }
        },
        {
            "type": "Feature",
            "geometry": {
                "type": "Point",
                "coordinates": [
                    -118.261092,
                    34.0460223
                ]
            },
            "properties": {
                "nome": "The UPS Store",
                "tipo": "post_office"
            }
        },
        {
            "type": "Feature",
            "geometry": {
                "type": "Point",
                "coordinates": [
                    -118.2607358,
                    34.0450964
                ]
            },
            "properties": {
                "nome": "Panini Cafe Downtown",
                "tipo": "restaurant"
            }
        },
        {
            "type": "Feature",
            "geometry": {
                "type": "Point",
                "coordinates": [
                    -118.260294,
                    34.0454731
                ]
            },
            "properties": {
                "nome": "Quiznos",
                "tipo": "fast_food"
            }
        },
        {
            "type": "Feature",
            "geometry": {
                "type": "Point",
                "coordinates": [
                    -118.2553893,
                    34.0427183
                ]
            },
            "properties": {
                "nome": "Orpheum Theatre",
                "tipo": "theatre"
            }
        },
        {
            "type": "Feature",
            "geometry": {
                "type": "Point",
                "coordinates": [
                    -118.254986,
                    34.0432155
                ]
            },
            "properties": {
                "nome": "Niche.LA Video Art",
                "tipo": "cinema"
            }
        },
        {
            "type": "Feature",
            "geometry": {
                "type": "Point",
                "coordinates": [
                    -118.2647127,
                    34.0467673
                ]
            },
            "properties": {
                "nome": "Salvation Army- L.A. Central Corp",
                "tipo": "social_facility"
            }
        },
        {
            "type": "Feature",
            "geometry": {
                "type": "Point",
                "coordinates": [
                    -118.255916,
                    34.0420122
                ]
            },
            "properties": {
                "nome": "Anson's Eatery",
                "tipo": "restaurant"
            }
        },
        {
            "type": "Feature",
            "geometry": {
                "type": "Point",
                "coordinates": [
                    -118.2552247,
                    34.0429796
                ]
            },
            "properties": {
                "nome": "Two Boots",
                "tipo": "restaurant"
            }
        },
        {
            "type": "Feature",
            "geometry": {
                "type": "Point",
                "coordinates": [
                    -118.2544884,
                    34.0423785
                ]
            },
            "properties": {
                "nome": "Verve Coffee",
                "tipo": "cafe"
            }
        },
        {
            "type": "Feature",
            "geometry": {
                "type": "Point",
                "coordinates": [
                    -118.2553548,
                    34.0428385
                ]
            },
            "properties": {
                "nome": "Broadway Bar",
                "tipo": "bar"
            }
        },
        {
            "type": "Feature",
            "geometry": {
                "type": "Point",
                "coordinates": [
                    -118.2556527,
                    34.0424851
                ]
            },
            "properties": {
                "nome": "Umami Burger",
                "tipo": "restaurant"
            }
        },
        {
            "type": "Feature",
            "geometry": {
                "type": "Point",
                "coordinates": [
                    -118.256161,
                    34.0455522
                ]
            },
            "properties": {
                "nome": "Domino's",
                "tipo": "fast_food"
            }
        },
        {
            "type": "Feature",
            "geometry": {
                "type": "Point",
                "coordinates": [
                    -118.25619,
                    34.04211
                ]
            },
            "properties": {
                "nome": "Broadway & 9th",
                "tipo": "bicycle_rental"
            }
        },
        {
            "type": "Feature",
            "geometry": {
                "type": "Point",
                "coordinates": [
                    -118.26014,
                    34.04373
                ]
            },
            "properties": {
                "nome": "Grand & Olympic",
                "tipo": "bicycle_rental"
            }
        },
        {
            "type": "Feature",
            "geometry": {
                "type": "Point",
                "coordinates": [
                    -118.26338,
                    34.04206
                ]
            },
            "properties": {
                "nome": "Hope & 11th",
                "tipo": "bicycle_rental"
            }
        },
        {
            "type": "Feature",
            "geometry": {
                "type": "Point",
                "coordinates": [
                    -118.26117,
                    34.04417
                ]
            },
            "properties": {
                "nome": "Hope & Olympic",
                "tipo": "bicycle_rental"
            }
        },
        {
            "type": "Feature",
            "geometry": {
                "type": "Point",
                "coordinates": [
                    -118.26273,
                    34.04661
                ]
            },
            "properties": {
                "nome": "Figueroa & 9th",
                "tipo": "bicycle_rental"
            }
        },
        {
            "type": "Feature",
            "geometry": {
                "type": "Point",
                "coordinates": [
                    -118.25667,
                    34.04554
                ]
            },
            "properties": {
                "nome": "Olive & 8th",
                "tipo": "bicycle_rental"
            }
        },
        {
            "type": "Feature",
            "geometry": {
                "type": "Point",
                "coordinates": [
                    -118.2614835,
                    34.0473363
                ]
            },
            "properties": {
                "nome": "Denny's",
                "tipo": "restaurant"
            }
        },
        {
            "type": "Feature",
            "geometry": {
                "type": "Point",
                "coordinates": [
                    -118.2643582,
                    34.0456934
                ]
            },
            "properties": {
                "nome": "Veranda Poolside Lounge",
                "tipo": "bar"
            }
        },
        {
            "type": "Feature",
            "geometry": {
                "type": "Point",
                "coordinates": [
                    -118.2563965,
                    34.0449937
                ]
            },
            "properties": {
                "nome": "Uncle John's Cafe",
                "tipo": "restaurant"
            }
        },
        {
            "type": "Feature",
            "geometry": {
                "type": "Point",
                "coordinates": [
                    -118.2563218,
                    34.0479408
                ]
            },
            "properties": {
                "nome": "Karl Strauss Brewing Company",
                "tipo": "restaurant"
            }
        },
        {
            "type": "Feature",
            "geometry": {
                "type": "Point",
                "coordinates": [
                    -118.2569522,
                    34.0466095
                ]
            },
            "properties": {
                "nome": "fundamental",
                "tipo": "restaurant"
            }
        },
        {
            "type": "Feature",
            "geometry": {
                "type": "Point",
                "coordinates": [
                    -118.263946,
                    34.0452619
                ]
            },
            "properties": {
                "nome": "Mr. Masala",
                "tipo": "restaurant"
            }
        },
        {
            "type": "Feature",
            "geometry": {
                "type": "Point",
                "coordinates": [
                    -118.261243,
                    34.0458515
                ]
            },
            "properties": {
                "nome": "Qwench",
                "tipo": "cafe"
            }
        },
        {
            "type": "Feature",
            "geometry": {
                "type": "Point",
                "coordinates": [
                    -118.2617847,
                    34.0469117
                ]
            },
            "properties": {
                "nome": "Avis Budget",
                "tipo": "car_rental"
            }
        },
        {
            "type": "Feature",
            "geometry": {
                "type": "Point",
                "coordinates": [
                    -118.2638492,
                    34.0436045
                ]
            },
            "properties": {
                "nome": "El Cholo",
                "tipo": "restaurant"
            }
        },
        {
            "type": "Feature",
            "geometry": {
                "type": "Point",
                "coordinates": [
                    -118.2560652,
                    34.0444877
                ]
            },
            "properties": {
                "nome": "Shake Shack",
                "tipo": "fast_food"
            }
        },
        {
            "type": "Feature",
            "geometry": {
                "type": "Point",
                "coordinates": [
                    -118.2565154,
                    34.0451038
                ]
            },
            "properties": {
                "nome": "Colori Kitchen",
                "tipo": "restaurant"
            }
        },
        {
            "type": "Feature",
            "geometry": {
                "type": "Point",
                "coordinates": [
                    -118.2660349,
                    34.0447262
                ]
            },
            "properties": {
                "nome": "Starbucks",
                "tipo": "cafe"
            }
        },
        {
            "type": "Feature",
            "geometry": {
                "type": "Point",
                "coordinates": [
                    -118.265476,
                    34.0439955
                ]
            },
            "properties": {
                "nome": "Tom's Watch Bar",
                "tipo": "pub"
            }
        },
        {
            "type": "Feature",
            "geometry": {
                "type": "Point",
                "coordinates": [
                    -118.2655494,
                    34.0442572
                ]
            },
            "properties": {
                "nome": "Smashburger",
                "tipo": "fast_food"
            }
        },
        {
            "type": "Feature",
            "geometry": {
                "type": "Point",
                "coordinates": [
                    -118.2569556,
                    34.0472147
                ]
            },
            "properties": {
                "nome": "Le Grand",
                "tipo": "restaurant"
            }
        },
        {
            "type": "Feature",
            "geometry": {
                "type": "Point",
                "coordinates": [
                    -118.2666759,
                    34.0453945
                ]
            },
            "properties": {
                "nome": "WP24 by Wolfgang Puck",
                "tipo": "restaurant"
            }
        },
        {
            "type": "Feature",
            "geometry": {
                "type": "Point",
                "coordinates": [
                    -118.2571353,
                    34.0450878
                ]
            },
            "properties": {
                "nome": "Tokyo Fried Chicken",
                "tipo": "restaurant"
            }
        },
        {
            "type": "Feature",
            "geometry": {
                "type": "Point",
                "coordinates": [
                    -118.2635404,
                    34.0433098
                ]
            },
            "properties": {
                "nome": "Broken Spanish",
                "tipo": "restaurant"
            }
        },
        {
            "type": "Feature",
            "geometry": {
                "type": "Point",
                "coordinates": [
                    -118.2567858,
                    34.0449405
                ]
            },
            "properties": {
                "nome": "The Exchange",
                "tipo": "restaurant"
            }
        },
        {
            "type": "Feature",
            "geometry": {
                "type": "Point",
                "coordinates": [
                    -118.2615244,
                    34.046029
                ]
            },
            "properties": {
                "nome": "Baar Baar",
                "tipo": "restaurant"
            }
        },
        {
            "type": "Feature",
            "geometry": {
                "type": "Point",
                "coordinates": [
                    -118.2606777,
                    34.046902
                ]
            },
            "properties": {
                "nome": "The Burrow",
                "tipo": "restaurant"
            }
        },
        {
            "type": "Feature",
            "geometry": {
                "type": "Point",
                "coordinates": [
                    -118.256087,
                    34.0471231
                ]
            },
            "properties": {
                "nome": "Little Sister",
                "tipo": "restaurant"
            }
        },
        {
            "type": "Feature",
            "geometry": {
                "type": "Point",
                "coordinates": [
                    -118.2630157,
                    34.042022
                ]
            },
            "properties": {
                "nome": "Prank",
                "tipo": "restaurant"
            }
        },
        {
            "type": "Feature",
            "geometry": {
                "type": "Point",
                "coordinates": [
                    -118.2575988,
                    34.0427729
                ]
            },
            "properties": {
                "nome": "The Stocking Frame",
                "tipo": "restaurant"
            }
        },
        {
            "type": "Feature",
            "geometry": {
                "type": "Point",
                "coordinates": [
                    -118.2607735,
                    34.0469713
                ]
            },
            "properties": {
                "nome": "Bar and Kitchen",
                "tipo": "restaurant"
            }
        },
        {
            "type": "Feature",
            "geometry": {
                "type": "Point",
                "coordinates": [
                    -118.259349,
                    34.0465349
                ]
            },
            "properties": {
                "nome": "Philz Coffee",
                "tipo": "cafe"
            }
        },
        {
            "type": "Feature",
            "geometry": {
                "type": "Point",
                "coordinates": [
                    -118.2561046,
                    34.0425422
                ]
            },
            "properties": {
                "nome": "Il Caffe",
                "tipo": "cafe"
            }
        },
        {
            "type": "Feature",
            "geometry": {
                "type": "Point",
                "coordinates": [
                    -118.2595011,
                    34.0420434
                ]
            },
            "properties": {
                "nome": "Mikkeller Room",
                "tipo": "restaurant"
            }
        },
        {
            "type": "Feature",
            "geometry": {
                "type": "Point",
                "coordinates": [
                    -118.2574116,
                    34.0443038
                ]
            },
            "properties": {
                "nome": "Modern Times Dankness Dojo",
                "tipo": "restaurant"
            }
        },
        {
            "type": "Feature",
            "geometry": {
                "type": "Point",
                "coordinates": [
                    -118.256277,
                    34.044946
                ]
            },
            "properties": {
                "nome": "Golden Gopher",
                "tipo": "bar"
            }
        },
        {
            "type": "Feature",
            "geometry": {
                "type": "Point",
                "coordinates": [
                    -118.2565088,
                    34.0447111
                ]
            },
            "properties": {
                "nome": "broken shaker",
                "tipo": "bar"
            }
        },
        {
            "type": "Feature",
            "geometry": {
                "type": "Point",
                "coordinates": [
                    -118.258097,
                    34.0480189
                ]
            },
            "properties": {
                "nome": "Joey",
                "tipo": "restaurant"
            }
        },
        {
            "type": "Feature",
            "geometry": {
                "type": "Point",
                "coordinates": [
                    -118.26335,
                    34.0440948
                ]
            },
            "properties": {
                "nome": "Cańa",
                "tipo": "bar"
            }
        },
        {
            "type": "Feature",
            "geometry": {
                "type": "Point",
                "coordinates": [
                    -118.2567395,
                    34.0449153
                ]
            },
            "properties": {
                "nome": "Cafe Integral at Freehand Los Angeles",
                "tipo": "cafe"
            }
        },
        {
            "type": "Feature",
            "geometry": {
                "type": "Point",
                "coordinates": [
                    -118.257763,
                    34.0439579
                ]
            },
            "properties": {
                "nome": "Cognoscenti Coffee",
                "tipo": "cafe"
            }
        },
        {
            "type": "Feature",
            "geometry": {
                "type": "Point",
                "coordinates": [
                    -118.2596525,
                    34.0462665
                ]
            },
            "properties": {
                "nome": "Backyard Bowls",
                "tipo": "restaurant"
            }
        },
        {
            "type": "Feature",
            "geometry": {
                "type": "Point",
                "coordinates": [
                    -118.2585664,
                    34.047853
                ]
            },
            "properties": {
                "nome": "Hatch Yakitori",
                "tipo": "restaurant"
            }
        },
        {
            "type": "Feature",
            "geometry": {
                "type": "Point",
                "coordinates": [
                    -118.2571984,
                    34.0432261
                ]
            },
            "properties": {
                "nome": "Chase",
                "tipo": "bank"
            }
        },
        {
            "type": "Feature",
            "geometry": {
                "type": "Point",
                "coordinates": [
                    -118.256645,
                    34.0451824
                ]
            },
            "properties": {
                "nome": "Dunkin'",
                "tipo": "fast_food"
            }
        },
        {
            "type": "Feature",
            "geometry": {
                "type": "Point",
                "coordinates": [
                    -118.2613958,
                    34.0454871
                ]
            },
            "properties": {
                "nome": "Starbucks",
                "tipo": "cafe"
            }
        },
        {
            "type": "Feature",
            "geometry": {
                "type": "Point",
                "coordinates": [
                    -118.258395,
                    34.0480243
                ]
            },
            "properties": {
                "nome": "DISTRICT",
                "tipo": "restaurant"
            }
        },
        {
            "type": "Feature",
            "geometry": {
                "type": "Point",
                "coordinates": [
                    -118.25852,
                    34.0479064
                ]
            },
            "properties": {
                "nome": "Qwench",
                "tipo": "fast_food"
            }
        },
        {
            "type": "Feature",
            "geometry": {
                "type": "Point",
                "coordinates": [
                    -118.2568067,
                    34.0476027
                ]
            },
            "properties": {
                "nome": "Inka Wasi",
                "tipo": "restaurant"
            }
        },
        {
            "type": "Feature",
            "geometry": {
                "type": "Point",
                "coordinates": [
                    -118.2569414,
                    34.0477039
                ]
            },
            "properties": {
                "nome": "Zankou Chicken",
                "tipo": "fast_food"
            }
        },
        {
            "type": "Feature",
            "geometry": {
                "type": "Point",
                "coordinates": [
                    -118.2562024,
                    34.0468311
                ]
            },
            "properties": {
                "nome": "HH Brazilian Steakhouse",
                "tipo": "restaurant"
            }
        },
        {
            "type": "Feature",
            "geometry": {
                "type": "Point",
                "coordinates": [
                    -118.2561016,
                    34.0467727
                ]
            },
            "properties": {
                "nome": "Gyu-Kaku",
                "tipo": "restaurant"
            }
        },
        {
            "type": "Feature",
            "geometry": {
                "type": "Point",
                "coordinates": [
                    -118.2558738,
                    34.046639
                ]
            },
            "properties": {
                "nome": "It's Boba Time",
                "tipo": "cafe"
            }
        },
        {
            "type": "Feature",
            "geometry": {
                "type": "Point",
                "coordinates": [
                    -118.2656783,
                    34.0445602
                ]
            },
            "properties": {
                "nome": "Katsuya",
                "tipo": "restaurant"
            }
        },
        {
            "type": "Feature",
            "geometry": {
                "type": "Point",
                "coordinates": [
                    -118.2652342,
                    34.0450386
                ]
            },
            "properties": {
                "nome": "Sol Agave",
                "tipo": "restaurant"
            }
        },
        {
            "type": "Feature",
            "geometry": {
                "type": "Point",
                "coordinates": [
                    -118.2644994,
                    34.0448429
                ]
            },
            "properties": {
                "nome": "Fleming's",
                "tipo": "restaurant"
            }
        },
        {
            "type": "Feature",
            "geometry": {
                "type": "Point",
                "coordinates": [
                    -118.264774,
                    34.0445452
                ]
            },
            "properties": {
                "nome": "Fixins Soul Kitchen",
                "tipo": "restaurant"
            }
        },
        {
            "type": "Feature",
            "geometry": {
                "type": "Point",
                "coordinates": [
                    -118.2668223,
                    34.0449238
                ]
            },
            "properties": {
                "nome": "Savoca",
                "tipo": "restaurant"
            }
        },
        {
            "type": "Feature",
            "geometry": {
                "type": "Point",
                "coordinates": [
                    -118.2653549,
                    34.0446735
                ]
            },
            "properties": {
                "nome": "The Novo",
                "tipo": "nightclub"
            }
        },
        {
            "type": "Feature",
            "geometry": {
                "type": "Point",
                "coordinates": [
                    -118.2579147,
                    34.0438029
                ]
            },
            "properties": {
                "nome": "Sakana Sushi",
                "tipo": "restaurant"
            }
        },
        {
            "type": "Feature",
            "geometry": {
                "type": "Point",
                "coordinates": [
                    -118.258568,
                    34.0431123
                ]
            },
            "properties": {
                "nome": "Shekarchi Bar & Grill",
                "tipo": "restaurant"
            }
        },
        {
            "type": "Feature",
            "geometry": {
                "type": "Point",
                "coordinates": [
                    -118.2583375,
                    34.0433663
                ]
            },
            "properties": {
                "nome": "The Art Room",
                "tipo": "restaurant"
            }
        },
        {
            "type": "Feature",
            "geometry": {
                "type": "Point",
                "coordinates": [
                    -118.2578825,
                    34.0456188
                ]
            },
            "properties": {
                "nome": "CVS Pharmacy",
                "tipo": "pharmacy"
            }
        },
        {
            "type": "Feature",
            "geometry": {
                "type": "Point",
                "coordinates": [
                    -118.2585637,
                    34.0446919
                ]
            },
            "properties": {
                "nome": "Hanks Bar",
                "tipo": "bar"
            }
        },
        {
            "type": "Feature",
            "geometry": {
                "type": "Point",
                "coordinates": [
                    -118.25841,
                    34.042015
                ]
            },
            "properties": {
                "nome": "Chipotle",
                "tipo": "fast_food"
            }
        },
        {
            "type": "Feature",
            "geometry": {
                "type": "Point",
                "coordinates": [
                    -118.2559292,
                    34.0466731
                ]
            },
            "properties": {
                "nome": "Rosemary Grill",
                "tipo": "restaurant"
            }
        },
        {
            "type": "Feature",
            "geometry": {
                "type": "Point",
                "coordinates": [
                    -118.2600256,
                    34.0451074
                ]
            },
            "properties": {
                "nome": "Habit Burger & Grill",
                "tipo": "fast_food"
            }
        },
        {
            "type": "Feature",
            "geometry": {
                "type": "Point",
                "coordinates": [
                    -118.2563716,
                    34.0473244
                ]
            },
            "properties": {
                "nome": "sandcouch cafe",
                "tipo": "cafe"
            }
        },
        {
            "type": "Feature",
            "geometry": {
                "type": "Point",
                "coordinates": [
                    -118.254757,
                    34.047728
                ]
            },
            "properties": {
                "nome": "Cicada Restaurant and Lounge",
                "tipo": "restaurant"
            }
        }
    ]
}